[
  {
    "id": "BTS_N24",
    "code": "N24",
    "name_th": "คูคต",
    "name_en": "Khu Khot",
    "line_id": "BTS_SUKHUMVIT",
    "lat": 13.932366,
    "lng": 100.646523,
    "interchange": [],
    "exit_info": {
      "bound_0": "ไปคูคต",
      "bound_1": "ไปเคหะฯ"
    }
  },
  {
    "id": "BTS_N23",
    "code": "N23",
    "name_th": "แยก คปอ.",
    "name_en": "Yaek Kor Por Aor",
    "line_id": "BTS_SUKHUMVIT",
    "lat": 13.925013,
    "lng": 100.625837,
    "interchange": [],
    "exit_info": {
      "bound_0": "ไปคูคต",
      "bound_1": "ไปเคหะฯ"
    }
  },
  {
    "id": "BTS_N22",
    "code": "N22",
    "name_th": "พิพิธภัณฑ์กองทัพอากาศ",
    "name_en": "Royal Thai Air Force Museum",
    "line_id": "BTS_SUKHUMVIT",
    "lat": 13.917971,
    "lng": 100.621691,
    "interchange": [],
    "exit_info": {
      "bound_0": "ไปคูคต",
      "bound_1": "ไปเคหะฯ"
    }
  },
  {
    "id": "BTS_N21",
    "code": "N21",
    "name_th": "โรงพยาบาลภูมิพลอดุลยเดช",
    "name_en": "Bhumibol Adulyadej Hospital",
    "line_id": "BTS_SUKHUMVIT",
    "lat": 13.910714,
    "lng": 100.617396,
    "interchange": [],
    "exit_info": {
      "bound_0": "ไปคูคต",
      "bound_1": "ไปเคหะฯ"
    }
  },
  {
    "id": "BTS_N20",
    "code": "N20",
    "name_th": "สะพานใหม่",
    "name_en": "Saphan Mai",
    "line_id": "BTS_SUKHUMVIT",
    "lat": 13.896613,
    "lng": 100.609077,
    "interchange": [],
    "exit_info": {
      "bound_0": "ไปคูคต",
      "bound_1": "ไปเคหะฯ"
    }
  },
  {
    "id": "BTS_N19",
    "code": "N19",
    "name_th": "สายหยุด",
    "name_en": "Sai Yud",
    "line_id": "BTS_SUKHUMVIT",
    "lat": 13.888451,
    "lng": 100.604269,
    "interchange": [],
    "exit_info": {
      "bound_0": "ไปคูคต",
      "bound_1": "ไปเคหะฯ"
    }
  },
  {
    "id": "BTS_N18",
    "code": "N18",
    "name_th": "พหลโยธิน 59",
    "name_en": "Phahon Yothin 59",
    "line_id": "BTS_SUKHUMVIT",
    "lat": 13.882448,
    "lng": 100.600731,
    "interchange": [],
    "exit_info": {
      "bound_0": "ไปคูคต",
      "bound_1": "ไปเคหะฯ"
    }
  },
  {
    "id": "BTS_N17",
    "code": "N17",
    "name_th": "วัดพระศรีมหาธาตุ",
    "name_en": "Wat Phra Sri Mahathat",
    "line_id": "BTS_SUKHUMVIT",
    "lat": 13.875277,
    "lng": 100.596732,
    "interchange": [],
    "exit_info": {
      "bound_0": "ไปคูคต",
      "bound_1": "ไปเคหะฯ"
    }
  },
  {
    "id": "BTS_N16",
    "code": "N16",
    "name_th": "กรมทหารราบที่ 11",
    "name_en": "11th Infantry Regiment",
    "line_id": "BTS_SUKHUMVIT",
    "lat": 13.867578,
    "lng": 100.591973,
    "interchange": [],
    "exit_info": {
      "bound_0": "ไปคูคต",
      "bound_1": "ไปเคหะฯ"
    }
  },
  {
    "id": "BTS_N15",
    "code": "N15",
    "name_th": "บางบัว",
    "name_en": "Bang Bua",
    "line_id": "BTS_SUKHUMVIT",
    "lat": 13.856049,
    "lng": 100.585179,
    "interchange": [],
    "exit_info": {
      "bound_0": "ไปคูคต",
      "bound_1": "ไปเคหะฯ"
    }
  },
  {
    "id": "BTS_N14",
    "code": "N14",
    "name_th": "กรมป่าไม้",
    "name_en": "Royal Forest Department",
    "line_id": "BTS_SUKHUMVIT",
    "lat": 13.850326,
    "lng": 100.581816,
    "interchange": [],
    "exit_info": {
      "bound_0": "ไปคูคต",
      "bound_1": "ไปเคหะฯ"
    }
  },
  {
    "id": "BTS_N13",
    "code": "N13",
    "name_th": "มหาวิทยาลัยเกษตรศาสตร์",
    "name_en": "Kasetsart University",
    "line_id": "BTS_SUKHUMVIT",
    "lat": 13.842314,
    "lng": 100.577105,
    "interchange": [],
    "exit_info": {
      "bound_0": "ไปคูคต",
      "bound_1": "ไปเคหะฯ"
    }
  },
  {
    "id": "BTS_N12",
    "code": "N12",
    "name_th": "เสนานิคม",
    "name_en": "Sena Nikhom",
    "line_id": "BTS_SUKHUMVIT",
    "lat": 13.836406,
    "lng": 100.573629,
    "interchange": [],
    "exit_info": {
      "bound_0": "ไปคูคต",
      "bound_1": "ไปเคหะฯ"
    }
  },
  {
    "id": "BTS_N11",
    "code": "N11",
    "name_th": "รัชโยธิน",
    "name_en": "Ratchayothin",
    "line_id": "BTS_SUKHUMVIT",
    "lat": 13.829748,
    "lng": 100.569722,
    "interchange": [],
    "exit_info": {
      "bound_0": "ไปคูคต",
      "bound_1": "ไปเคหะฯ"
    }
  },
  {
    "id": "BTS_N10",
    "code": "N10",
    "name_th": "พหลโยธิน 24",
    "name_en": "Phahon Yothin 24",
    "line_id": "BTS_SUKHUMVIT",
    "lat": 13.824121,
    "lng": 100.566425,
    "interchange": [],
    "exit_info": {
      "bound_0": "ไปคูคต",
      "bound_1": "ไปเคหะฯ"
    }
  },
  {
    "id": "BTS_N9",
    "code": "N9",
    "name_th": "ห้าแยกลาดพร้าว",
    "name_en": "Ha Yaek Lat Phrao",
    "line_id": "BTS_SUKHUMVIT",
    "lat": 13.816681,
    "lng": 100.562036,
    "interchange": [
      "MRT_BL14"
    ],
    "exit_info": {
      "bound_0": "ไปคูคต",
      "bound_1": "ไปเคหะฯ"
    }
  },
  {
    "id": "BTS_N8",
    "code": "N8",
    "name_th": "หมอชิต",
    "name_en": "Mo Chit",
    "line_id": "BTS_SUKHUMVIT",
    "lat": 13.802605,
    "lng": 100.553796,
    "interchange": [
      "MRT_BL13"
    ],
    "exit_info": {
      "bound_0": "ไปคูคต",
      "bound_1": "ไปเคหะฯ"
    }
  },
  {
    "id": "BTS_N7",
    "code": "N7",
    "name_th": "สะพานควาย",
    "name_en": "Saphan Khwai",
    "line_id": "BTS_SUKHUMVIT",
    "lat": 13.793823,
    "lng": 100.549711,
    "interchange": [],
    "exit_info": {
      "bound_0": "ไปคูคต",
      "bound_1": "ไปเคหะฯ"
    }
  },
  {
    "id": "BTS_N5",
    "code": "N5",
    "name_th": "อารีย์",
    "name_en": "Ari",
    "line_id": "BTS_SUKHUMVIT",
    "lat": 13.779708,
    "lng": 100.54462,
    "interchange": [],
    "exit_info": {
      "bound_0": "ไปคูคต",
      "bound_1": "ไปเคหะฯ"
    }
  },
  {
    "id": "BTS_N4",
    "code": "N4",
    "name_th": "สนามเป้า",
    "name_en": "Sanam Pao",
    "line_id": "BTS_SUKHUMVIT",
    "lat": 13.772623,
    "lng": 100.542073,
    "interchange": [],
    "exit_info": {
      "bound_0": "ไปคูคต",
      "bound_1": "ไปเคหะฯ"
    }
  },
  {
    "id": "BTS_N3",
    "code": "N3",
    "name_th": "อนุสาวรีย์ชัยสมรภูมิ",
    "name_en": "Victory Monument",
    "line_id": "BTS_SUKHUMVIT",
    "lat": 13.762759,
    "lng": 100.537053,
    "interchange": [],
    "exit_info": {
      "bound_0": "ไปคูคต",
      "bound_1": "ไปเคหะฯ"
    }
  },
  {
    "id": "BTS_N2",
    "code": "N2",
    "name_th": "พญาไท",
    "name_en": "Phaya Thai",
    "line_id": "BTS_SUKHUMVIT",
    "lat": 13.756964,
    "lng": 100.533821,
    "interchange": [
      "ARL_A8"
    ],
    "exit_info": {
      "bound_0": "ไปคูคต",
      "bound_1": "ไปเคหะฯ"
    }
  },
  {
    "id": "BTS_N1",
    "code": "N1",
    "name_th": "ราชเทวี",
    "name_en": "Ratchathewi",
    "line_id": "BTS_SUKHUMVIT",
    "lat": 13.75186,
    "lng": 100.531553,
    "interchange": [],
    "exit_info": {
      "bound_0": "ไปคูคต",
      "bound_1": "ไปเคหะฯ"
    }
  },
  {
    "id": "BTS_CEN",
    "code": "CEN",
    "name_th": "สยาม",
    "name_en": "Siam",
    "line_id": "BTS_SUKHUMVIT",
    "lat": 13.745624,
    "lng": 100.53422,
    "interchange": [
      "BTS_CEN_SILOM"
    ],
    "exit_info": {
      "bound_0": "ไปคูคต",
      "bound_1": "ไปเคหะฯ"
    }
  },
  {
    "id": "BTS_E1",
    "code": "E1",
    "name_th": "ชิดลม",
    "name_en": "Chit Lom",
    "line_id": "BTS_SUKHUMVIT",
    "lat": 13.744097,
    "lng": 100.543068,
    "interchange": [],
    "exit_info": {
      "bound_0": "ไปคูคต",
      "bound_1": "ไปเคหะฯ"
    }
  },
  {
    "id": "BTS_E2",
    "code": "E2",
    "name_th": "เพลินจิต",
    "name_en": "Phloen Chit",
    "line_id": "BTS_SUKHUMVIT",
    "lat": 13.743068,
    "lng": 100.548976,
    "interchange": [],
    "exit_info": {
      "bound_0": "ไปคูคต",
      "bound_1": "ไปเคหะฯ"
    }
  },
  {
    "id": "BTS_E3",
    "code": "E3",
    "name_th": "นานา",
    "name_en": "Nana",
    "line_id": "BTS_SUKHUMVIT",
    "lat": 13.740536,
    "lng": 100.555429,
    "interchange": [],
    "exit_info": {
      "bound_0": "ไปคูคต",
      "bound_1": "ไปเคหะฯ"
    }
  },
  {
    "id": "BTS_E4",
    "code": "E4",
    "name_th": "อโศก",
    "name_en": "Asok",
    "line_id": "BTS_SUKHUMVIT",
    "lat": 13.737043,
    "lng": 100.560357,
    "interchange": [
      "MRT_BL22"
    ],
    "exit_info": {
      "bound_0": "ไปคูคต",
      "bound_1": "ไปเคหะฯ"
    }
  },
  {
    "id": "BTS_E5",
    "code": "E5",
    "name_th": "พร้อมพงษ์",
    "name_en": "Phrom Phong",
    "line_id": "BTS_SUKHUMVIT",
    "lat": 13.730434,
    "lng": 100.569713,
    "interchange": [],
    "exit_info": {
      "bound_0": "ไปคูคต",
      "bound_1": "ไปเคหะฯ"
    }
  },
  {
    "id": "BTS_E6",
    "code": "E6",
    "name_th": "ทองหล่อ",
    "name_en": "Thong Lo",
    "line_id": "BTS_SUKHUMVIT",
    "lat": 13.724226,
    "lng": 100.578505,
    "interchange": [],
    "exit_info": {
      "bound_0": "ไปคูคต",
      "bound_1": "ไปเคหะฯ"
    }
  },
  {
    "id": "BTS_E7",
    "code": "E7",
    "name_th": "เอกมัย",
    "name_en": "Ekkamai",
    "line_id": "BTS_SUKHUMVIT",
    "lat": 13.719539,
    "lng": 100.585111,
    "interchange": [],
    "exit_info": {
      "bound_0": "ไปคูคต",
      "bound_1": "ไปเคหะฯ"
    }
  },
  {
    "id": "BTS_E8",
    "code": "E8",
    "name_th": "พระโขนง",
    "name_en": "Phra Khanong",
    "line_id": "BTS_SUKHUMVIT",
    "lat": 13.715169,
    "lng": 100.591236,
    "interchange": [],
    "exit_info": {
      "bound_0": "ไปคูคต",
      "bound_1": "ไปเคหะฯ"
    }
  },
  {
    "id": "BTS_E9",
    "code": "E9",
    "name_th": "อ่อนนุช",
    "name_en": "On Nut",
    "line_id": "BTS_SUKHUMVIT",
    "lat": 13.705625,
    "lng": 100.601004,
    "interchange": [],
    "exit_info": {
      "bound_0": "ไปคูคต",
      "bound_1": "ไปเคหะฯ"
    }
  },
  {
    "id": "BTS_E10",
    "code": "E10",
    "name_th": "บางจาก",
    "name_en": "Bang Chak",
    "line_id": "BTS_SUKHUMVIT",
    "lat": 13.696759,
    "lng": 100.60534,
    "interchange": [],
    "exit_info": {
      "bound_0": "ไปคูคต",
      "bound_1": "ไปเคหะฯ"
    }
  },
  {
    "id": "BTS_E11",
    "code": "E11",
    "name_th": "ปุณณวิถี",
    "name_en": "Punnawithi",
    "line_id": "BTS_SUKHUMVIT",
    "lat": 13.689279,
    "lng": 100.608996,
    "interchange": [],
    "exit_info": {
      "bound_0": "ไปคูคต",
      "bound_1": "ไปเคหะฯ"
    }
  },
  {
    "id": "BTS_E12",
    "code": "E12",
    "name_th": "อุดมสุข",
    "name_en": "Udom Suk",
    "line_id": "BTS_SUKHUMVIT",
    "lat": 13.679875,
    "lng": 100.60947,
    "interchange": [],
    "exit_info": {
      "bound_0": "ไปคูคต",
      "bound_1": "ไปเคหะฯ"
    }
  },
  {
    "id": "BTS_E13",
    "code": "E13",
    "name_th": "บางนา",
    "name_en": "Bang Na",
    "line_id": "BTS_SUKHUMVIT",
    "lat": 13.668138,
    "lng": 100.604663,
    "interchange": [],
    "exit_info": {
      "bound_0": "ไปคูคต",
      "bound_1": "ไปเคหะฯ"
    }
  },
  {
    "id": "BTS_E14",
    "code": "E14",
    "name_th": "แบริ่ง",
    "name_en": "Bearing",
    "line_id": "BTS_SUKHUMVIT",
    "lat": 13.661185,
    "lng": 100.601806,
    "interchange": [],
    "exit_info": {
      "bound_0": "ไปคูคต",
      "bound_1": "ไปเคหะฯ"
    }
  },
  {
    "id": "BTS_E15",
    "code": "E15",
    "name_th": "สำโรง",
    "name_en": "Samrong",
    "line_id": "BTS_SUKHUMVIT",
    "lat": 13.646487,
    "lng": 100.595786,
    "interchange": [
      "MRT_YL23"
    ],
    "exit_info": {
      "bound_0": "ไปคูคต",
      "bound_1": "ไปเคหะฯ"
    }
  },
  {
    "id": "BTS_E16",
    "code": "E16",
    "name_th": "ปู่เจ้า",
    "name_en": "Pu Chao",
    "line_id": "BTS_SUKHUMVIT",
    "lat": 13.637277,
    "lng": 100.592006,
    "interchange": [],
    "exit_info": {
      "bound_0": "ไปคูคต",
      "bound_1": "ไปเคหะฯ"
    }
  },
  {
    "id": "BTS_E17",
    "code": "E17",
    "name_th": "ช้างเอราวัณ",
    "name_en": "Chang Erawan",
    "line_id": "BTS_SUKHUMVIT",
    "lat": 13.621594,
    "lng": 100.59016,
    "interchange": [],
    "exit_info": {
      "bound_0": "ไปคูคต",
      "bound_1": "ไปเคหะฯ"
    }
  },
  {
    "id": "BTS_E18",
    "code": "E18",
    "name_th": "โรงเรียนนายเรือ",
    "name_en": "Royal Thai Naval Academy",
    "line_id": "BTS_SUKHUMVIT",
    "lat": 13.608409,
    "lng": 100.594906,
    "interchange": [],
    "exit_info": {
      "bound_0": "ไปคูคต",
      "bound_1": "ไปเคหะฯ"
    }
  },
  {
    "id": "BTS_E19",
    "code": "E19",
    "name_th": "ปากน้ำ",
    "name_en": "Pak Nam",
    "line_id": "BTS_SUKHUMVIT",
    "lat": 13.602124,
    "lng": 100.597092,
    "interchange": [],
    "exit_info": {
      "bound_0": "ไปคูคต",
      "bound_1": "ไปเคหะฯ"
    }
  },
  {
    "id": "BTS_E20",
    "code": "E20",
    "name_th": "ศรีนครินทร์",
    "name_en": "Srinagarindra",
    "line_id": "BTS_SUKHUMVIT",
    "lat": 13.591997,
    "lng": 100.609035,
    "interchange": [],
    "exit_info": {
      "bound_0": "ไปคูคต",
      "bound_1": "ไปเคหะฯ"
    }
  },
  {
    "id": "BTS_E21",
    "code": "E21",
    "name_th": "แพรกษา",
    "name_en": "Phraek Sa",
    "line_id": "BTS_SUKHUMVIT",
    "lat": 13.584192,
    "lng": 100.607905,
    "interchange": [],
    "exit_info": {
      "bound_0": "ไปคูคต",
      "bound_1": "ไปเคหะฯ"
    }
  },
  {
    "id": "BTS_E22",
    "code": "E22",
    "name_th": "สายลวด",
    "name_en": "Sai Luat",
    "line_id": "BTS_SUKHUMVIT",
    "lat": 13.577775,
    "lng": 100.605461,
    "interchange": [],
    "exit_info": {
      "bound_0": "ไปคูคต",
      "bound_1": "ไปเคหะฯ"
    }
  },
  {
    "id": "BTS_E23",
    "code": "E23",
    "name_th": "เคหะฯ",
    "name_en": "Kheha",
    "line_id": "BTS_SUKHUMVIT",
    "lat": 13.567687,
    "lng": 100.607694,
    "interchange": [],
    "exit_info": {
      "bound_0": "ไปคูคต",
      "bound_1": "ไปเคหะฯ"
    }
  },
  {
    "id": "BTS_W1",
    "code": "W1",
    "name_th": "สนามกีฬาแห่งชาติ",
    "name_en": "National Stadium",
    "line_id": "BTS_SILOM",
    "lat": 13.74651,
    "lng": 100.529085,
    "interchange": [],
    "exit_info": {
      "bound_0": "ไปสนามกีฬาแห่งชาติ",
      "bound_1": "ไปบางหว้า"
    }
  },
  {
    "id": "BTS_CEN_SILOM",
    "code": "CEN",
    "name_th": "สยาม",
    "name_en": "Siam",
    "line_id": "BTS_SILOM",
    "lat": 13.745624,
    "lng": 100.53422,
    "interchange": [
      "BTS_CEN"
    ],
    "exit_info": {
      "bound_0": "ไปสนามกีฬาแห่งชาติ",
      "bound_1": "ไปบางหว้า"
    }
  },
  {
    "id": "BTS_S1",
    "code": "S1",
    "name_th": "ราชดำริ",
    "name_en": "Ratchadamri",
    "line_id": "BTS_SILOM",
    "lat": 13.739471,
    "lng": 100.53945,
    "interchange": [],
    "exit_info": {
      "bound_0": "ไปสนามกีฬาแห่งชาติ",
      "bound_1": "ไปบางหว้า"
    }
  },
  {
    "id": "BTS_S2",
    "code": "S2",
    "name_th": "ศาลาแดง",
    "name_en": "Sala Daeng",
    "line_id": "BTS_SILOM",
    "lat": 13.728568,
    "lng": 100.534342,
    "interchange": [
      "MRT_BL26"
    ],
    "exit_info": {
      "bound_0": "ไปสนามกีฬาแห่งชาติ",
      "bound_1": "ไปบางหว้า"
    }
  },
  {
    "id": "BTS_S3",
    "code": "S3",
    "name_th": "ช่องนนทรี",
    "name_en": "Chong Nonsi",
    "line_id": "BTS_SILOM",
    "lat": 13.723797,
    "lng": 100.529325,
    "interchange": [],
    "exit_info": {
      "bound_0": "ไปสนามกีฬาแห่งชาติ",
      "bound_1": "ไปบางหว้า"
    }
  },
  {
    "id": "BTS_S4",
    "code": "S4",
    "name_th": "เซนต์หลุยส์",
    "name_en": "Saint Louis",
    "line_id": "BTS_SILOM",
    "lat": 13.720816,
    "lng": 100.526686,
    "interchange": [],
    "exit_info": {
      "bound_0": "ไปสนามกีฬาแห่งชาติ",
      "bound_1": "ไปบางหว้า"
    }
  },
  {
    "id": "BTS_S5",
    "code": "S5",
    "name_th": "สุรศักดิ์",
    "name_en": "Surasak",
    "line_id": "BTS_SILOM",
    "lat": 13.719268,
    "lng": 100.521462,
    "interchange": [],
    "exit_info": {
      "bound_0": "ไปสนามกีฬาแห่งชาติ",
      "bound_1": "ไปบางหว้า"
    }
  },
  {
    "id": "BTS_S6",
    "code": "S6",
    "name_th": "สะพานตากสิน",
    "name_en": "Saphan Taksin",
    "line_id": "BTS_SILOM",
    "lat": 13.718813,
    "lng": 100.514223,
    "interchange": [],
    "exit_info": {
      "bound_0": "ไปสนามกีฬาแห่งชาติ",
      "bound_1": "ไปบางหว้า"
    }
  },
  {
    "id": "BTS_S7",
    "code": "S7",
    "name_th": "กรุงธนบุรี",
    "name_en": "Krung Thon Buri",
    "line_id": "BTS_SILOM",
    "lat": 13.720931,
    "lng": 100.502718,
    "interchange": [
      "BTS_G1"
    ],
    "exit_info": {
      "bound_0": "ไปสนามกีฬาแห่งชาติ",
      "bound_1": "ไปบางหว้า"
    }
  },
  {
    "id": "BTS_S8",
    "code": "S8",
    "name_th": "วงเวียนใหญ่",
    "name_en": "Wongwian Yai",
    "line_id": "BTS_SILOM",
    "lat": 13.721082,
    "lng": 100.495159,
    "interchange": [],
    "exit_info": {
      "bound_0": "ไปสนามกีฬาแห่งชาติ",
      "bound_1": "ไปบางหว้า"
    }
  },
  {
    "id": "BTS_S9",
    "code": "S9",
    "name_th": "โพธิ์นิมิตร",
    "name_en": "Pho Nimit",
    "line_id": "BTS_SILOM",
    "lat": 13.719243,
    "lng": 100.485968,
    "interchange": [],
    "exit_info": {
      "bound_0": "ไปสนามกีฬาแห่งชาติ",
      "bound_1": "ไปบางหว้า"
    }
  },
  {
    "id": "BTS_S10",
    "code": "S10",
    "name_th": "ตลาดพลู",
    "name_en": "Talat Phlu",
    "line_id": "BTS_SILOM",
    "lat": 13.71422,
    "lng": 100.476691,
    "interchange": [],
    "exit_info": {
      "bound_0": "ไปสนามกีฬาแห่งชาติ",
      "bound_1": "ไปบางหว้า"
    }
  },
  {
    "id": "BTS_S11",
    "code": "S11",
    "name_th": "วุฒากาศ",
    "name_en": "Wutthakat",
    "line_id": "BTS_SILOM",
    "lat": 13.712541,
    "lng": 100.47264,
    "interchange": [],
    "exit_info": {
      "bound_0": "ไปสนามกีฬาแห่งชาติ",
      "bound_1": "ไปบางหว้า"
    }
  },
  {
    "id": "BTS_S12",
    "code": "S12",
    "name_th": "บางหว้า",
    "name_en": "Bang Wa",
    "line_id": "BTS_SILOM",
    "lat": 13.72079,
    "lng": 100.457791,
    "interchange": [
      "MRT_BL35"
    ],
    "exit_info": {
      "bound_0": "ไปสนามกีฬาแห่งชาติ",
      "bound_1": "ไปบางหว้า"
    }
  },
  {
    "id": "BTS_G1",
    "code": "G1",
    "name_th": "กรุงธนบุรี",
    "name_en": "Krung Thon Buri",
    "line_id": "BTS_GOLD",
    "lat": 13.720931,
    "lng": 100.502718,
    "interchange": [
      "BTS_S7"
    ],
    "exit_info": {
      "bound_0": "ไปกรุงธนบุรี",
      "bound_1": "ไปคลองสาน"
    }
  },
  {
    "id": "BTS_G2",
    "code": "G2",
    "name_th": "เจริญนคร",
    "name_en": "Charoen Nakhon",
    "line_id": "BTS_GOLD",
    "lat": 13.726462,
    "lng": 100.509069,
    "interchange": [],
    "exit_info": {
      "bound_0": "ไปกรุงธนบุรี",
      "bound_1": "ไปคลองสาน"
    }
  },
  {
    "id": "BTS_G3",
    "code": "G3",
    "name_th": "คลองสาน",
    "name_en": "Khlong San",
    "line_id": "BTS_GOLD",
    "lat": 13.730307,
    "lng": 100.507721,
    "interchange": [],
    "exit_info": {
      "bound_0": "ไปกรุงธนบุรี",
      "bound_1": "ไปคลองสาน"
    }
  },
  {
    "id": "MRT_BL01",
    "code": "BL01",
    "name_th": "ท่าพระ",
    "name_en": "Tha Phra",
    "line_id": "MRT_BLUE",
    "lat": 13.729647,
    "lng": 100.474042,
    "interchange": [
      "MRT_BL33"
    ],
    "exit_info": {
      "bound_0": "วงกลม (ตามเข็ม)",
      "bound_1": "วงกลม (ทวนเข็ม)"
    }
  },
  {
    "id": "MRT_BL02",
    "code": "BL02",
    "name_th": "จรัญฯ 13",
    "name_en": "Charan 13",
    "line_id": "MRT_BLUE",
    "lat": 13.740171,
    "lng": 100.470709,
    "interchange": [],
    "exit_info": {
      "bound_0": "วงกลม (ตามเข็ม)",
      "bound_1": "วงกลม (ทวนเข็ม)"
    }
  },
  {
    "id": "MRT_BL03",
    "code": "BL03",
    "name_th": "ไฟฉาย",
    "name_en": "Fai Chai",
    "line_id": "MRT_BLUE",
    "lat": 13.755801,
    "lng": 100.46932,
    "interchange": [],
    "exit_info": {
      "bound_0": "วงกลม (ตามเข็ม)",
      "bound_1": "วงกลม (ทวนเข็ม)"
    }
  },
  {
    "id": "MRT_BL04",
    "code": "BL04",
    "name_th": "บางขุนนนท์",
    "name_en": "Bang Khun Non",
    "line_id": "MRT_BLUE",
    "lat": 13.763325,
    "lng": 100.473296,
    "interchange": [],
    "exit_info": {
      "bound_0": "วงกลม (ตามเข็ม)",
      "bound_1": "วงกลม (ทวนเข็ม)"
    }
  },
  {
    "id": "MRT_BL05",
    "code": "BL05",
    "name_th": "บางยี่ขัน",
    "name_en": "Bang Yi Khan",
    "line_id": "MRT_BLUE",
    "lat": 13.777382,
    "lng": 100.485256,
    "interchange": [],
    "exit_info": {
      "bound_0": "วงกลม (ตามเข็ม)",
      "bound_1": "วงกลม (ทวนเข็ม)"
    }
  },
  {
    "id": "MRT_BL06",
    "code": "BL06",
    "name_th": "สิรินธร",
    "name_en": "Sirindhorn",
    "line_id": "MRT_BLUE",
    "lat": 13.783873,
    "lng": 100.493327,
    "interchange": [],
    "exit_info": {
      "bound_0": "วงกลม (ตามเข็ม)",
      "bound_1": "วงกลม (ทวนเข็ม)"
    }
  },
  {
    "id": "MRT_BL07",
    "code": "BL07",
    "name_th": "บางพลัด",
    "name_en": "Bang Phlat",
    "line_id": "MRT_BLUE",
    "lat": 13.792411,
    "lng": 100.504888,
    "interchange": [],
    "exit_info": {
      "bound_0": "วงกลม (ตามเข็ม)",
      "bound_1": "วงกลม (ทวนเข็ม)"
    }
  },
  {
    "id": "MRT_BL08",
    "code": "BL08",
    "name_th": "บางอ้อ",
    "name_en": "Bang O",
    "line_id": "MRT_BLUE",
    "lat": 13.79898,
    "lng": 100.509786,
    "interchange": [],
    "exit_info": {
      "bound_0": "วงกลม (ตามเข็ม)",
      "bound_1": "วงกลม (ทวนเข็ม)"
    }
  },
  {
    "id": "MRT_BL09",
    "code": "BL09",
    "name_th": "บางโพ",
    "name_en": "Bang Pho",
    "line_id": "MRT_BLUE",
    "lat": 13.806403,
    "lng": 100.52101,
    "interchange": [],
    "exit_info": {
      "bound_0": "วงกลม (ตามเข็ม)",
      "bound_1": "วงกลม (ทวนเข็ม)"
    }
  },
  {
    "id": "MRT_BL10",
    "code": "BL10",
    "name_th": "เตาปูน",
    "name_en": "Tao Poon",
    "line_id": "MRT_BLUE",
    "lat": 13.806163,
    "lng": 100.530775,
    "interchange": [
      "MRT_PP16"
    ],
    "exit_info": {
      "bound_0": "วงกลม (ตามเข็ม)",
      "bound_1": "วงกลม (ทวนเข็ม)"
    }
  },
  {
    "id": "MRT_BL11",
    "code": "BL11",
    "name_th": "บางซื่อ",
    "name_en": "Bang Sue",
    "line_id": "MRT_BLUE",
    "lat": 13.802392,
    "lng": 100.541046,
    "interchange": [],
    "exit_info": {
      "bound_0": "วงกลม (ตามเข็ม)",
      "bound_1": "วงกลม (ทวนเข็ม)"
    }
  },
  {
    "id": "MRT_BL12",
    "code": "BL12",
    "name_th": "กำแพงเพชร",
    "name_en": "Kamphaeng Phet",
    "line_id": "MRT_BLUE",
    "lat": 13.797948,
    "lng": 100.547884,
    "interchange": [],
    "exit_info": {
      "bound_0": "วงกลม (ตามเข็ม)",
      "bound_1": "วงกลม (ทวนเข็ม)"
    }
  },
  {
    "id": "MRT_BL13",
    "code": "BL13",
    "name_th": "สวนจตุจักร",
    "name_en": "Chatuchak Park",
    "line_id": "MRT_BLUE",
    "lat": 13.802964,
    "lng": 100.553285,
    "interchange": [
      "BTS_N8"
    ],
    "exit_info": {
      "bound_0": "วงกลม (ตามเข็ม)",
      "bound_1": "วงกลม (ทวนเข็ม)"
    }
  },
  {
    "id": "MRT_BL14",
    "code": "BL14",
    "name_th": "พหลโยธิน",
    "name_en": "Phahon Yothin",
    "line_id": "MRT_BLUE",
    "lat": 13.812881,
    "lng": 100.561463,
    "interchange": [
      "BTS_N9"
    ],
    "exit_info": {
      "bound_0": "วงกลม (ตามเข็ม)",
      "bound_1": "วงกลม (ทวนเข็ม)"
    }
  },
  {
    "id": "MRT_BL15",
    "code": "BL15",
    "name_th": "ลาดพร้าว",
    "name_en": "Lat Phrao",
    "line_id": "MRT_BLUE",
    "lat": 13.806983,
    "lng": 100.574785,
    "interchange": [
      "MRT_YL01"
    ],
    "exit_info": {
      "bound_0": "วงกลม (ตามเข็ม)",
      "bound_1": "วงกลม (ทวนเข็ม)"
    }
  },
  {
    "id": "MRT_BL16",
    "code": "BL16",
    "name_th": "รัชดาภิเษก",
    "name_en": "Ratchadaphisek",
    "line_id": "MRT_BLUE",
    "lat": 13.798971,
    "lng": 100.574554,
    "interchange": [],
    "exit_info": {
      "bound_0": "วงกลม (ตามเข็ม)",
      "bound_1": "วงกลม (ทวนเข็ม)"
    }
  },
  {
    "id": "MRT_BL17",
    "code": "BL17",
    "name_th": "สุทธิสาร",
    "name_en": "Sutthisan",
    "line_id": "MRT_BLUE",
    "lat": 13.789488,
    "lng": 100.57408,
    "interchange": [],
    "exit_info": {
      "bound_0": "วงกลม (ตามเข็ม)",
      "bound_1": "วงกลม (ทวนเข็ม)"
    }
  },
  {
    "id": "MRT_BL18",
    "code": "BL18",
    "name_th": "ห้วยขวาง",
    "name_en": "Huai Khwang",
    "line_id": "MRT_BLUE",
    "lat": 13.778688,
    "lng": 100.573566,
    "interchange": [],
    "exit_info": {
      "bound_0": "วงกลม (ตามเข็ม)",
      "bound_1": "วงกลม (ทวนเข็ม)"
    }
  },
  {
    "id": "MRT_BL19",
    "code": "BL19",
    "name_th": "ศูนย์วัฒนธรรมแห่งประเทศไทย",
    "name_en": "Thailand Cultural Centre",
    "line_id": "MRT_BLUE",
    "lat": 13.766291,
    "lng": 100.570083,
    "interchange": [],
    "exit_info": {
      "bound_0": "วงกลม (ตามเข็ม)",
      "bound_1": "วงกลม (ทวนเข็ม)"
    }
  },
  {
    "id": "MRT_BL20",
    "code": "BL20",
    "name_th": "พระราม 9",
    "name_en": "Phra Ram 9",
    "line_id": "MRT_BLUE",
    "lat": 13.757817,
    "lng": 100.565277,
    "interchange": [],
    "exit_info": {
      "bound_0": "วงกลม (ตามเข็ม)",
      "bound_1": "วงกลม (ทวนเข็ม)"
    }
  },
  {
    "id": "MRT_BL21",
    "code": "BL21",
    "name_th": "เพชรบุรี",
    "name_en": "Phetchaburi",
    "line_id": "MRT_BLUE",
    "lat": 13.749185,
    "lng": 100.563417,
    "interchange": [
      "ARL_A6"
    ],
    "exit_info": {
      "bound_0": "วงกลม (ตามเข็ม)",
      "bound_1": "วงกลม (ทวนเข็ม)"
    }
  },
  {
    "id": "MRT_BL22",
    "code": "BL22",
    "name_th": "สุขุมวิท",
    "name_en": "Sukhumvit",
    "line_id": "MRT_BLUE",
    "lat": 13.737395,
    "lng": 100.56134,
    "interchange": [
      "BTS_E4"
    ],
    "exit_info": {
      "bound_0": "วงกลม (ตามเข็ม)",
      "bound_1": "วงกลม (ทวนเข็ม)"
    }
  },
  {
    "id": "MRT_BL23",
    "code": "BL23",
    "name_th": "ศูนย์การประชุมแห่งชาติสิริกิติ์",
    "name_en": "Queen Sirikit National Convention Centre",
    "line_id": "MRT_BLUE",
    "lat": 13.722672,
    "lng": 100.559913,
    "interchange": [],
    "exit_info": {
      "bound_0": "วงกลม (ตามเข็ม)",
      "bound_1": "วงกลม (ทวนเข็ม)"
    }
  },
  {
    "id": "MRT_BL24",
    "code": "BL24",
    "name_th": "คลองเตย",
    "name_en": "Khlong Toei",
    "line_id": "MRT_BLUE",
    "lat": 13.722126,
    "lng": 100.55437,
    "interchange": [],
    "exit_info": {
      "bound_0": "วงกลม (ตามเข็ม)",
      "bound_1": "วงกลม (ทวนเข็ม)"
    }
  },
  {
    "id": "MRT_BL25",
    "code": "BL25",
    "name_th": "ลุมพินี",
    "name_en": "Lumphini",
    "line_id": "MRT_BLUE",
    "lat": 13.725607,
    "lng": 100.545725,
    "interchange": [],
    "exit_info": {
      "bound_0": "วงกลม (ตามเข็ม)",
      "bound_1": "วงกลม (ทวนเข็ม)"
    }
  },
  {
    "id": "MRT_BL26",
    "code": "BL26",
    "name_th": "สีลม",
    "name_en": "Si Lom",
    "line_id": "MRT_BLUE",
    "lat": 13.729198,
    "lng": 100.53707,
    "interchange": [
      "BTS_S2"
    ],
    "exit_info": {
      "bound_0": "วงกลม (ตามเข็ม)",
      "bound_1": "วงกลม (ทวนเข็ม)"
    }
  },
  {
    "id": "MRT_BL27",
    "code": "BL27",
    "name_th": "สามย่าน",
    "name_en": "Sam Yan",
    "line_id": "MRT_BLUE",
    "lat": 13.732061,
    "lng": 100.530121,
    "interchange": [],
    "exit_info": {
      "bound_0": "วงกลม (ตามเข็ม)",
      "bound_1": "วงกลม (ทวนเข็ม)"
    }
  },
  {
    "id": "MRT_BL28",
    "code": "BL28",
    "name_th": "หัวลำโพง",
    "name_en": "Hua Lamphong",
    "line_id": "MRT_BLUE",
    "lat": 13.737571,
    "lng": 100.517135,
    "interchange": [],
    "exit_info": {
      "bound_0": "วงกลม (ตามเข็ม)",
      "bound_1": "วงกลม (ทวนเข็ม)"
    }
  },
  {
    "id": "MRT_BL29",
    "code": "BL29",
    "name_th": "วัดมังกร",
    "name_en": "Wat Mangkon",
    "line_id": "MRT_BLUE",
    "lat": 13.742209,
    "lng": 100.50991,
    "interchange": [],
    "exit_info": {
      "bound_0": "วงกลม (ตามเข็ม)",
      "bound_1": "วงกลม (ทวนเข็ม)"
    }
  },
  {
    "id": "MRT_BL30",
    "code": "BL30",
    "name_th": "สามยอด",
    "name_en": "Sam Yot",
    "line_id": "MRT_BLUE",
    "lat": 13.747,
    "lng": 100.502302,
    "interchange": [],
    "exit_info": {
      "bound_0": "วงกลม (ตามเข็ม)",
      "bound_1": "วงกลม (ทวนเข็ม)"
    }
  },
  {
    "id": "MRT_BL31",
    "code": "BL31",
    "name_th": "สนามไชย",
    "name_en": "Sanam Chai",
    "line_id": "MRT_BLUE",
    "lat": 13.744326,
    "lng": 100.494624,
    "interchange": [],
    "exit_info": {
      "bound_0": "วงกลม (ตามเข็ม)",
      "bound_1": "วงกลม (ทวนเข็ม)"
    }
  },
  {
    "id": "MRT_BL32",
    "code": "BL32",
    "name_th": "อิสรภาพ",
    "name_en": "Itsaraphap",
    "line_id": "MRT_BLUE",
    "lat": 13.738364,
    "lng": 100.4857,
    "interchange": [],
    "exit_info": {
      "bound_0": "วงกลม (ตามเข็ม)",
      "bound_1": "วงกลม (ทวนเข็ม)"
    }
  },
  {
    "id": "MRT_BL33",
    "code": "BL33",
    "name_th": "ท่าพระ",
    "name_en": "Tha Phra",
    "line_id": "MRT_BLUE",
    "lat": 13.729647,
    "lng": 100.474042,
    "interchange": [
      "MRT_BL01"
    ],
    "exit_info": {
      "bound_0": "วงกลม (ตามเข็ม)",
      "bound_1": "วงกลม (ทวนเข็ม)"
    }
  },
  {
    "id": "MRT_BL34",
    "code": "BL34",
    "name_th": "บางไผ่",
    "name_en": "Bang Phai",
    "line_id": "MRT_BLUE",
    "lat": 13.724618,
    "lng": 100.465079,
    "interchange": [],
    "exit_info": {
      "bound_0": "วงกลม (ตามเข็ม)",
      "bound_1": "วงกลม (ทวนเข็ม)"
    }
  },
  {
    "id": "MRT_BL35",
    "code": "BL35",
    "name_th": "บางหว้า",
    "name_en": "Bang Wa",
    "line_id": "MRT_BLUE",
    "lat": 13.72079,
    "lng": 100.457791,
    "interchange": [
      "BTS_S12"
    ],
    "exit_info": {
      "bound_0": "วงกลม (ตามเข็ม)",
      "bound_1": "วงกลม (ทวนเข็ม)"
    }
  },
  {
    "id": "MRT_BL36",
    "code": "BL36",
    "name_th": "เพชรเกษม 48",
    "name_en": "Phetkasem 48",
    "line_id": "MRT_BLUE",
    "lat": 13.715559,
    "lng": 100.445451,
    "interchange": [],
    "exit_info": {
      "bound_0": "วงกลม (ตามเข็ม)",
      "bound_1": "วงกลม (ทวนเข็ม)"
    }
  },
  {
    "id": "MRT_BL37",
    "code": "BL37",
    "name_th": "ภาษีเจริญ",
    "name_en": "Phasi Charoen",
    "line_id": "MRT_BLUE",
    "lat": 13.71291,
    "lng": 100.434326,
    "interchange": [],
    "exit_info": {
      "bound_0": "วงกลม (ตามเข็ม)",
      "bound_1": "วงกลม (ทวนเข็ม)"
    }
  },
  {
    "id": "MRT_BL38",
    "code": "BL38",
    "name_th": "หลักสอง",
    "name_en": "Lak Song",
    "line_id": "MRT_BLUE",
    "lat": 13.710877,
    "lng": 100.409485,
    "interchange": [],
    "exit_info": {
      "bound_0": "วงกลม (ตามเข็ม)",
      "bound_1": "วงกลม (ทวนเข็ม)"
    }
  },
  {
    "id": "MRT_PP01",
    "code": "PP01",
    "name_th": "คลองบางไผ่",
    "name_en": "Khlong Bang Phai",
    "line_id": "MRT_PURPLE",
    "lat": 13.892434,
    "lng": 100.408216,
    "interchange": [],
    "exit_info": {
      "bound_0": "ไปคลองบางไผ่",
      "bound_1": "ไปเตาปูน"
    }
  },
  {
    "id": "MRT_PP02",
    "code": "PP02",
    "name_th": "ตลาดบางใหญ่",
    "name_en": "Talad Bang Yai",
    "line_id": "MRT_PURPLE",
    "lat": 13.881012,
    "lng": 100.409287,
    "interchange": [],
    "exit_info": {
      "bound_0": "ไปคลองบางไผ่",
      "bound_1": "ไปเตาปูน"
    }
  },
  {
    "id": "MRT_PP03",
    "code": "PP03",
    "name_th": "สามแยกบางใหญ่",
    "name_en": "Sam Yaek Bang Yai",
    "line_id": "MRT_PURPLE",
    "lat": 13.874675,
    "lng": 100.419362,
    "interchange": [],
    "exit_info": {
      "bound_0": "ไปคลองบางไผ่",
      "bound_1": "ไปเตาปูน"
    }
  },
  {
    "id": "MRT_PP04",
    "code": "PP04",
    "name_th": "บางพลู",
    "name_en": "Bang Phlu",
    "line_id": "MRT_PURPLE",
    "lat": 13.875768,
    "lng": 100.433801,
    "interchange": [],
    "exit_info": {
      "bound_0": "ไปคลองบางไผ่",
      "bound_1": "ไปเตาปูน"
    }
  },
  {
    "id": "MRT_PP05",
    "code": "PP05",
    "name_th": "บางรักใหญ่",
    "name_en": "Bang Rak Yai",
    "line_id": "MRT_PURPLE",
    "lat": 13.876607,
    "lng": 100.444936,
    "interchange": [],
    "exit_info": {
      "bound_0": "ไปคลองบางไผ่",
      "bound_1": "ไปเตาปูน"
    }
  },
  {
    "id": "MRT_PP06",
    "code": "PP06",
    "name_th": "บางรักน้อยท่าอิฐ",
    "name_en": "Bang Rak Noi Tha It",
    "line_id": "MRT_PURPLE",
    "lat": 13.874808,
    "lng": 100.455965,
    "interchange": [],
    "exit_info": {
      "bound_0": "ไปคลองบางไผ่",
      "bound_1": "ไปเตาปูน"
    }
  },
  {
    "id": "MRT_PP07",
    "code": "PP07",
    "name_th": "ไทรม้า",
    "name_en": "Sai Ma",
    "line_id": "MRT_PURPLE",
    "lat": 13.870511,
    "lng": 100.466692,
    "interchange": [],
    "exit_info": {
      "bound_0": "ไปคลองบางไผ่",
      "bound_1": "ไปเตาปูน"
    }
  },
  {
    "id": "MRT_PP08",
    "code": "PP08",
    "name_th": "สะพานพระนั่งเกล้า",
    "name_en": "Phra Nang Klao Bridge",
    "line_id": "MRT_PURPLE",
    "lat": 13.87029,
    "lng": 100.480128,
    "interchange": [],
    "exit_info": {
      "bound_0": "ไปคลองบางไผ่",
      "bound_1": "ไปเตาปูน"
    }
  },
  {
    "id": "MRT_PP09",
    "code": "PP09",
    "name_th": "แยกนนทบุรี 1",
    "name_en": "Yaek Nonthaburi 1",
    "line_id": "MRT_PURPLE",
    "lat": 13.865961,
    "lng": 100.494077,
    "interchange": [],
    "exit_info": {
      "bound_0": "ไปคลองบางไผ่",
      "bound_1": "ไปเตาปูน"
    }
  },
  {
    "id": "MRT_PP10",
    "code": "PP10",
    "name_th": "บางกระสอ",
    "name_en": "Bang Krasor",
    "line_id": "MRT_PURPLE",
    "lat": 13.861653,
    "lng": 100.504652,
    "interchange": [],
    "exit_info": {
      "bound_0": "ไปคลองบางไผ่",
      "bound_1": "ไปเตาปูน"
    }
  },
  {
    "id": "MRT_PP11",
    "code": "PP11",
    "name_th": "ศูนย์ราชการนนทบุรี",
    "name_en": "Nonthaburi Civic Center",
    "line_id": "MRT_PURPLE",
    "lat": 13.860174,
    "lng": 100.513067,
    "interchange": [],
    "exit_info": {
      "bound_0": "ไปคลองบางไผ่",
      "bound_1": "ไปเตาปูน"
    }
  },
  {
    "id": "MRT_PP12",
    "code": "PP12",
    "name_th": "กระทรวงสาธารณสุข",
    "name_en": "Ministry of Public Health",
    "line_id": "MRT_PURPLE",
    "lat": 13.848531,
    "lng": 100.514715,
    "interchange": [],
    "exit_info": {
      "bound_0": "ไปคลองบางไผ่",
      "bound_1": "ไปเตาปูน"
    }
  },
  {
    "id": "MRT_PP13",
    "code": "PP13",
    "name_th": "แยกติวานนท์",
    "name_en": "Yaek Tiwanon",
    "line_id": "MRT_PURPLE",
    "lat": 13.839529,
    "lng": 100.514968,
    "interchange": [],
    "exit_info": {
      "bound_0": "ไปคลองบางไผ่",
      "bound_1": "ไปเตาปูน"
    }
  },
  {
    "id": "MRT_PP14",
    "code": "PP14",
    "name_th": "วงศ์สว่าง",
    "name_en": "Wong Sawang",
    "line_id": "MRT_PURPLE",
    "lat": 13.829864,
    "lng": 100.526496,
    "interchange": [],
    "exit_info": {
      "bound_0": "ไปคลองบางไผ่",
      "bound_1": "ไปเตาปูน"
    }
  },
  {
    "id": "MRT_PP15",
    "code": "PP15",
    "name_th": "บางซ่อน",
    "name_en": "Bang Son",
    "line_id": "MRT_PURPLE",
    "lat": 13.820081,
    "lng": 100.532458,
    "interchange": [],
    "exit_info": {
      "bound_0": "ไปคลองบางไผ่",
      "bound_1": "ไปเตาปูน"
    }
  },
  {
    "id": "MRT_PP16",
    "code": "PP16",
    "name_th": "เตาปูน",
    "name_en": "Tao Poon",
    "line_id": "MRT_PURPLE",
    "lat": 13.806163,
    "lng": 100.530775,
    "interchange": [
      "MRT_BL10"
    ],
    "exit_info": {
      "bound_0": "ไปคลองบางไผ่",
      "bound_1": "ไปเตาปูน"
    }
  },
  {
    "id": "MRT_YL01",
    "code": "YL01",
    "name_th": "ลาดพร้าว",
    "name_en": "Lat Phrao",
    "line_id": "MRT_YELLOW",
    "lat": 13.806983,
    "lng": 100.574785,
    "interchange": [
      "MRT_BL15"
    ],
    "exit_info": {
      "bound_0": "ไปลาดพร้าว",
      "bound_1": "ไปสำโรง"
    }
  },
  {
    "id": "MRT_YL02",
    "code": "YL02",
    "name_th": "ภาวนา",
    "name_en": "Phawana",
    "line_id": "MRT_YELLOW",
    "lat": 13.800164,
    "lng": 100.584195,
    "interchange": [],
    "exit_info": {
      "bound_0": "ไปลาดพร้าว",
      "bound_1": "ไปสำโรง"
    }
  },
  {
    "id": "MRT_YL03",
    "code": "YL03",
    "name_th": "โชคชัย 4",
    "name_en": "Chok Chai 4",
    "line_id": "MRT_YELLOW",
    "lat": 13.794425,
    "lng": 100.59443,
    "interchange": [],
    "exit_info": {
      "bound_0": "ไปลาดพร้าว",
      "bound_1": "ไปสำโรง"
    }
  },
  {
    "id": "MRT_YL04",
    "code": "YL04",
    "name_th": "ลาดพร้าว 71",
    "name_en": "Lat Phrao 71",
    "line_id": "MRT_YELLOW",
    "lat": 13.787092,
    "lng": 100.607573,
    "interchange": [],
    "exit_info": {
      "bound_0": "ไปลาดพร้าว",
      "bound_1": "ไปสำโรง"
    }
  },
  {
    "id": "MRT_YL05",
    "code": "YL05",
    "name_th": "ลาดพร้าว 83",
    "name_en": "Lat Phrao 83",
    "line_id": "MRT_YELLOW",
    "lat": 13.7837,
    "lng": 100.613658,
    "interchange": [],
    "exit_info": {
      "bound_0": "ไปลาดพร้าว",
      "bound_1": "ไปสำโรง"
    }
  },
  {
    "id": "MRT_YL06",
    "code": "YL06",
    "name_th": "มหาดไทย",
    "name_en": "Mahat Thai",
    "line_id": "MRT_YELLOW",
    "lat": 13.778368,
    "lng": 100.62316,
    "interchange": [],
    "exit_info": {
      "bound_0": "ไปลาดพร้าว",
      "bound_1": "ไปสำโรง"
    }
  },
  {
    "id": "MRT_YL07",
    "code": "YL07",
    "name_th": "ลาดพร้าว 101",
    "name_en": "Lat Phrao 101",
    "line_id": "MRT_YELLOW",
    "lat": 13.774633,
    "lng": 100.629842,
    "interchange": [],
    "exit_info": {
      "bound_0": "ไปลาดพร้าว",
      "bound_1": "ไปสำโรง"
    }
  },
  {
    "id": "MRT_YL08",
    "code": "YL08",
    "name_th": "บางกะปิ",
    "name_en": "Bang Kapi",
    "line_id": "MRT_YELLOW",
    "lat": 13.769075,
    "lng": 100.639769,
    "interchange": [],
    "exit_info": {
      "bound_0": "ไปลาดพร้าว",
      "bound_1": "ไปสำโรง"
    }
  },
  {
    "id": "MRT_YL09",
    "code": "YL09",
    "name_th": "แยกลำสาลี",
    "name_en": "Yaek Lam Sali",
    "line_id": "MRT_YELLOW",
    "lat": 13.761819,
    "lng": 100.645572,
    "interchange": [],
    "exit_info": {
      "bound_0": "ไปลาดพร้าว",
      "bound_1": "ไปสำโรง"
    }
  },
  {
    "id": "MRT_YL10",
    "code": "YL10",
    "name_th": "ศรีกรีฑา",
    "name_en": "Si Kritha",
    "line_id": "MRT_YELLOW",
    "lat": 13.750411,
    "lng": 100.644788,
    "interchange": [],
    "exit_info": {
      "bound_0": "ไปลาดพร้าว",
      "bound_1": "ไปสำโรง"
    }
  },
  {
    "id": "MRT_YL11",
    "code": "YL11",
    "name_th": "หัวหมาก",
    "name_en": "Hua Mak",
    "line_id": "MRT_YELLOW",
    "lat": 13.738017,
    "lng": 100.645262,
    "interchange": [
      "ARL_A4"
    ],
    "exit_info": {
      "bound_0": "ไปลาดพร้าว",
      "bound_1": "ไปสำโรง"
    }
  },
  {
    "id": "MRT_YL12",
    "code": "YL12",
    "name_th": "กลันตัน",
    "name_en": "Kalantan",
    "line_id": "MRT_YELLOW",
    "lat": 13.725271,
    "lng": 100.64178,
    "interchange": [],
    "exit_info": {
      "bound_0": "ไปลาดพร้าว",
      "bound_1": "ไปสำโรง"
    }
  },
  {
    "id": "MRT_YL13",
    "code": "YL13",
    "name_th": "ศรีนุช",
    "name_en": "Si Nut",
    "line_id": "MRT_YELLOW",
    "lat": 13.711097,
    "lng": 100.644196,
    "interchange": [],
    "exit_info": {
      "bound_0": "ไปลาดพร้าว",
      "bound_1": "ไปสำโรง"
    }
  },
  {
    "id": "MRT_YL14",
    "code": "YL14",
    "name_th": "ศรีนครินทร์ 38",
    "name_en": "Srinagarindra 38",
    "line_id": "MRT_YELLOW",
    "lat": 13.701122,
    "lng": 100.646473,
    "interchange": [],
    "exit_info": {
      "bound_0": "ไปลาดพร้าว",
      "bound_1": "ไปสำโรง"
    }
  },
  {
    "id": "MRT_YL15",
    "code": "YL15",
    "name_th": "สวนหลวง ร.9",
    "name_en": "Suan Luang Rama IX",
    "line_id": "MRT_YELLOW",
    "lat": 13.698,
    "lng": 100.629,
    "interchange": [],
    "exit_info": {
      "bound_0": "ไปลาดพร้าว",
      "bound_1": "ไปสำโรง"
    }
  },
  {
    "id": "MRT_YL16",
    "code": "YL16",
    "name_th": "ศรีอุดม",
    "name_en": "Si Udom",
    "line_id": "MRT_YELLOW",
    "lat": 13.69,
    "lng": 100.623,
    "interchange": [],
    "exit_info": {
      "bound_0": "ไปลาดพร้าว",
      "bound_1": "ไปสำโรง"
    }
  },
  {
    "id": "MRT_YL17",
    "code": "YL17",
    "name_th": "ศรีเอี่ยม",
    "name_en": "Si Iam",
    "line_id": "MRT_YELLOW",
    "lat": 13.683,
    "lng": 100.618,
    "interchange": [],
    "exit_info": {
      "bound_0": "ไปลาดพร้าว",
      "bound_1": "ไปสำโรง"
    }
  },
  {
    "id": "MRT_YL18",
    "code": "YL18",
    "name_th": "ศรีลาซาล",
    "name_en": "Si La Salle",
    "line_id": "MRT_YELLOW",
    "lat": 13.676,
    "lng": 100.613,
    "interchange": [],
    "exit_info": {
      "bound_0": "ไปลาดพร้าว",
      "bound_1": "ไปสำโรง"
    }
  },
  {
    "id": "MRT_YL19",
    "code": "YL19",
    "name_th": "ศรีแบริ่ง",
    "name_en": "Si Bearing",
    "line_id": "MRT_YELLOW",
    "lat": 13.661185,
    "lng": 100.601806,
    "interchange": [],
    "exit_info": {
      "bound_0": "ไปลาดพร้าว",
      "bound_1": "ไปสำโรง"
    }
  },
  {
    "id": "MRT_YL20",
    "code": "YL20",
    "name_th": "ศรีด่าน",
    "name_en": "Si Dan",
    "line_id": "MRT_YELLOW",
    "lat": 13.661,
    "lng": 100.604,
    "interchange": [],
    "exit_info": {
      "bound_0": "ไปลาดพร้าว",
      "bound_1": "ไปสำโรง"
    }
  },
  {
    "id": "MRT_YL21",
    "code": "YL21",
    "name_th": "ศรีเทพา",
    "name_en": "Si Thepha",
    "line_id": "MRT_YELLOW",
    "lat": 13.656,
    "lng": 100.599,
    "interchange": [],
    "exit_info": {
      "bound_0": "ไปลาดพร้าว",
      "bound_1": "ไปสำโรง"
    }
  },
  {
    "id": "MRT_YL22",
    "code": "YL22",
    "name_th": "ทิพวัล",
    "name_en": "Thipphawan",
    "line_id": "MRT_YELLOW",
    "lat": 13.652,
    "lng": 100.596,
    "interchange": [],
    "exit_info": {
      "bound_0": "ไปลาดพร้าว",
      "bound_1": "ไปสำโรง"
    }
  },
  {
    "id": "MRT_YL23",
    "code": "YL23",
    "name_th": "สำโรง",
    "name_en": "Samrong",
    "line_id": "MRT_YELLOW",
    "lat": 13.646487,
    "lng": 100.595786,
    "interchange": [
      "BTS_E15"
    ],
    "exit_info": {
      "bound_0": "ไปลาดพร้าว",
      "bound_1": "ไปสำโรง"
    }
  },
  {
    "id": "ARL_A8",
    "code": "A8",
    "name_th": "พญาไท",
    "name_en": "Phaya Thai",
    "line_id": "ARL",
    "lat": 13.756964,
    "lng": 100.533821,
    "interchange": [
      "BTS_N2"
    ],
    "exit_info": {
      "bound_0": "ไปสุวรรณภูมิ",
      "bound_1": "ไปพญาไท"
    }
  },
  {
    "id": "ARL_A7",
    "code": "A7",
    "name_th": "ราชปรารภ",
    "name_en": "Ratchaprarop",
    "line_id": "ARL",
    "lat": 13.755107,
    "lng": 100.542124,
    "interchange": [],
    "exit_info": {
      "bound_0": "ไปสุวรรณภูมิ",
      "bound_1": "ไปพญาไท"
    }
  },
  {
    "id": "ARL_A6",
    "code": "A6",
    "name_th": "มักกะสัน",
    "name_en": "Makkasan",
    "line_id": "ARL",
    "lat": 13.750909,
    "lng": 100.561143,
    "interchange": [
      "MRT_BL21"
    ],
    "exit_info": {
      "bound_0": "ไปสุวรรณภูมิ",
      "bound_1": "ไปพญาไท"
    }
  },
  {
    "id": "ARL_A5",
    "code": "A5",
    "name_th": "รามคำแหง",
    "name_en": "Ramkhamhaeng",
    "line_id": "ARL",
    "lat": 13.742993,
    "lng": 100.600154,
    "interchange": [],
    "exit_info": {
      "bound_0": "ไปสุวรรณภูมิ",
      "bound_1": "ไปพญาไท"
    }
  },
  {
    "id": "ARL_A4",
    "code": "A4",
    "name_th": "หัวหมาก",
    "name_en": "Hua Mak",
    "line_id": "ARL",
    "lat": 13.738017,
    "lng": 100.645262,
    "interchange": [
      "MRT_YL11"
    ],
    "exit_info": {
      "bound_0": "ไปสุวรรณภูมิ",
      "bound_1": "ไปพญาไท"
    }
  },
  {
    "id": "ARL_A3",
    "code": "A3",
    "name_th": "บ้านทับช้าง",
    "name_en": "Ban Thap Chang",
    "line_id": "ARL",
    "lat": 13.732963,
    "lng": 100.68873,
    "interchange": [],
    "exit_info": {
      "bound_0": "ไปสุวรรณภูมิ",
      "bound_1": "ไปพญาไท"
    }
  },
  {
    "id": "ARL_A2",
    "code": "A2",
    "name_th": "ลาดกระบัง",
    "name_en": "Lat Krabang",
    "line_id": "ARL",
    "lat": 13.727682,
    "lng": 100.748598,
    "interchange": [],
    "exit_info": {
      "bound_0": "ไปสุวรรณภูมิ",
      "bound_1": "ไปพญาไท"
    }
  },
  {
    "id": "ARL_A1",
    "code": "A1",
    "name_th": "สุวรรณภูมิ",
    "name_en": "Suvarnabhumi",
    "line_id": "ARL",
    "lat": 13.694267,
    "lng": 100.751288,
    "interchange": [],
    "exit_info": {
      "bound_0": "ไปสุวรรณภูมิ",
      "bound_1": "ไปพญาไท"
    }
  }
]